{"type":"FeatureCollection","features":[{"type":"Feature","properties":{"OBJECTID":1,"NAME":"HACE Central Office","ADDRESS":"167 W ALLEGHENY AVE","HOUSE":167,"EXTENSION":" ","STREET":"ALLEGHENY","ST_TYPE":"AVE","ST_SUFFIX":" ","CITY":"PHILADELPHIA","STATE":"PA","ZIP":19140,"PREVENTION":"Y","SENIORS":"N","PRE_PURCHA":"Y","OTHER":" "},"geometry":{"type":"Point","coordinates":[-75.13160113217015,39.99938748904999]}},{"type":"Feature","properties":{"OBJECTID":2,"NAME":"Mt Airy USA","ADDRESS":"6703 GERMANTOWN AVE","HOUSE":6703,"EXTENSION":" ","STREET":"GERMANTOWN","ST_TYPE":"AVE","ST_SUFFIX":" ","CITY":"PHILADELPHIA","STATE":"PA","ZIP":19119,"PREVENTION":"Y","SENIORS":"N","PRE_PURCHA":"Y","OTHER":" "},"geometry":{"type":"Point","coordinates":[-75.18514934578334,40.05226423695057]}},{"type":"Feature","properties":{"OBJECTID":3,"NAME":"Diversified Community Services","ADDRESS":"1920 S 20TH ST","HOUSE":1920,"EXTENSION":" ","STREET":"20TH","ST_TYPE":"ST","ST_SUFFIX":" ","CITY":"PHILADELPHIA","STATE":"PA","ZIP":19145,"PREVENTION":"Y","SENIORS":"N","PRE_PURCHA":"Y","OTHER":" "},"geometry":{"type":"Point","coordinates":[-75.17909678569582,39.92749046894337]}},{"type":"Feature","properties":{"OBJECTID":4,"NAME":"New Kensington CDC","ADDRESS":"2515 FRANKFORD AVE","HOUSE":2515,"EXTENSION":" ","STREET":"FRANKFORD","ST_TYPE":"AVE","ST_SUFFIX":" ","CITY":"PHILADELPHIA","STATE":"PA","ZIP":19125,"PREVENTION":"Y","SENIORS":"N","PRE_PURCHA":"Y","OTHER":" "},"geometry":{"type":"Point","coordinates":[-75.12532473712803,39.983465360937096]}},{"type":"Feature","properties":{"OBJECTID":5,"NAME":"Greater Philadelphia Asian Social Service Center (GPASS)","ADDRESS":"4943 N 05TH ST","HOUSE":4943,"EXTENSION":" ","STREET":"05TH","ST_TYPE":"ST","ST_SUFFIX":" ","CITY":"PHILADELPHIA","STATE":"PA","ZIP":19120,"PREVENTION":"Y","SENIORS":"N","PRE_PURCHA":"Y","OTHER":" "},"geometry":{"type":"Point","coordinates":[-75.13225326859951,40.026922541314114]}},{"type":"Feature","properties":{"OBJECTID":6,"NAME":"Intercultural Family Services","ADDRESS":"4225 CHESTNUT ST","HOUSE":4225,"EXTENSION":" ","STREET":"CHESTNUT","ST_TYPE":"ST","ST_SUFFIX":" ","CITY":"PHILADELPHIA","STATE":"PA","ZIP":19104,"PREVENTION":"Y","SENIORS":"N","PRE_PURCHA":"Y","OTHER":" "},"geometry":{"type":"Point","coordinates":[-75.20752428759738,39.95670649099898]}},{"type":"Feature","properties":{"OBJECTID":7,"NAME":"Norris Square Community Alliance","ADDRESS":"174 DIAMOND ST","HOUSE":174,"EXTENSION":" ","STREET":"DIAMOND","ST_TYPE":"ST","ST_SUFFIX":" ","CITY":"PHILADELPHIA","STATE":"PA","ZIP":19122,"PREVENTION":"Y","SENIORS":"N","PRE_PURCHA":"Y","OTHER":" "},"geometry":{"type":"Point","coordinates":[-75.13551188818778,39.981619814497385]}},{"type":"Feature","properties":{"OBJECTID":8,"NAME":"Northwest Counseling Service","ADDRESS":"5001 N BROAD ST","HOUSE":5001,"EXTENSION":" ","STREET":"BROAD","ST_TYPE":"ST","ST_SUFFIX":" ","CITY":"PHILADELPHIA","STATE":"PA","ZIP":19141,"PREVENTION":"Y","SENIORS":"N","PRE_PURCHA":"Y","OTHER":" "},"geometry":{"type":"Point","coordinates":[-75.14647518374503,40.029234723853065]}},{"type":"Feature","properties":{"OBJECTID":9,"NAME":"Congreso","ADDRESS":"216 W SOMERSET ST","HOUSE":216,"EXTENSION":" ","STREET":"SOMERSET","ST_TYPE":"ST","ST_SUFFIX":" ","CITY":"PHILADELPHIA","STATE":"PA","ZIP":19133,"PREVENTION":"Y","SENIORS":"N","PRE_PURCHA":"Y","OTHER":" "},"geometry":{"type":"Point","coordinates":[-75.1354296029208,39.9929488093076]}},{"type":"Feature","properties":{"OBJECTID":10,"NAME":"Korean Community Development Services Center","ADDRESS":"6055 N 05TH ST","HOUSE":6055,"EXTENSION":" ","STREET":"05TH","ST_TYPE":"ST","ST_SUFFIX":" ","CITY":"PHILADELPHIA","STATE":"PA","ZIP":19120,"PREVENTION":"Y","SENIORS":"N","PRE_PURCHA":"Y","OTHER":" "},"geometry":{"type":"Point","coordinates":[-75.12856289560382,40.043921338747985]}},{"type":"Feature","properties":{"OBJECTID":11,"NAME":"Asociacion Puertorriquenos en Marcha","ADDRESS":"600 DIAMOND ST","HOUSE":600,"EXTENSION":" ","STREET":"DIAMOND","ST_TYPE":"ST","ST_SUFFIX":" ","CITY":"PHILADELPHIA","STATE":"PA","ZIP":19122,"PREVENTION":"Y","SENIORS":"N","PRE_PURCHA":"Y","OTHER":" "},"geometry":{"type":"Point","coordinates":[-75.14442859664526,39.98285117216348]}},{"type":"Feature","properties":{"OBJECTID":12,"NAME":"Esperanza","ADDRESS":"4261 N 05TH ST","HOUSE":4261,"EXTENSION":" ","STREET":"05TH","ST_TYPE":"ST","ST_SUFFIX":" ","CITY":"PHILADELPHIA","STATE":"PA","ZIP":19140,"PREVENTION":"Y","SENIORS":"N","PRE_PURCHA":"Y","OTHER":" "},"geometry":{"type":"Point","coordinates":[-75.13411637956199,40.015919925729484]}},{"type":"Feature","properties":{"OBJECTID":13,"NAME":"Clarifi","ADDRESS":"1608 WALNUT ST","HOUSE":1608,"EXTENSION":" ","STREET":"WALNUT","ST_TYPE":"ST","ST_SUFFIX":" ","CITY":"PHILADELPHIA","STATE":"PA","ZIP":19103,"PREVENTION":"Y","SENIORS":"N","PRE_PURCHA":"Y","OTHER":" "},"geometry":{"type":"Point","coordinates":[-75.16813225183424,39.94954290777943]}},{"type":"Feature","properties":{"OBJECTID":14,"NAME":"HACE Frankford Office","ADDRESS":"4915 FRANKFORD AVE","HOUSE":4915,"EXTENSION":" ","STREET":"FRANKFORD","ST_TYPE":"AVE","ST_SUFFIX":" ","CITY":"PHILADELPHIA","STATE":"PA","ZIP":19124,"PREVENTION":"Y","SENIORS":"N","PRE_PURCHA":"Y","OTHER":" "},"geometry":{"type":"Point","coordinates":[-75.08100947364083,40.01936590327317]}},{"type":"Feature","properties":{"OBJECTID":15,"NAME":"Southwest CDC","ADDRESS":"6328 PASCHALL AVE","HOUSE":6328,"EXTENSION":" ","STREET":"PASCHALL","ST_TYPE":"AVE","ST_SUFFIX":" ","CITY":"PHILADELPHIA","STATE":"PA","ZIP":19142,"PREVENTION":"Y","SENIORS":"N","PRE_PURCHA":"Y","OTHER":" "},"geometry":{"type":"Point","coordinates":[-75.2310969061573,39.92567335537254]}},{"type":"Feature","properties":{"OBJECTID":16,"NAME":"Philadelphia Council for Community Advancement - Center City","ADDRESS":"1617 JOHN F KENNEDY BLVD","HOUSE":1617,"EXTENSION":" ","STREET":"JOHN F KENNEDY","ST_TYPE":"BLVD","ST_SUFFIX":" ","CITY":"PHILADELPHIA","STATE":"PA","ZIP":19103,"PREVENTION":"Y","SENIORS":"N","PRE_PURCHA":"Y","OTHER":" "},"geometry":{"type":"Point","coordinates":[-75.16737518661053,39.95419752853337]}},{"type":"Feature","properties":{"OBJECTID":17,"NAME":"Unemployment Information Center","ADDRESS":"112 N BROAD ST","HOUSE":112,"EXTENSION":" ","STREET":"BROAD","ST_TYPE":"ST","ST_SUFFIX":" ","CITY":"PHILADELPHIA","STATE":"PA","ZIP":19102,"PREVENTION":"Y","SENIORS":"N","PRE_PURCHA":"Y","OTHER":" "},"geometry":{"type":"Point","coordinates":[-75.1635879139421,39.95497793281429]}},{"type":"Feature","properties":{"OBJECTID":18,"NAME":"Philadelphia Council for Community Advancement - West","ADDRESS":"5218 MASTER ST","HOUSE":5218,"EXTENSION":" ","STREET":"MASTER","ST_TYPE":"ST","ST_SUFFIX":" ","CITY":"PHILADELPHIA","STATE":"PA","ZIP":19131,"PREVENTION":"Y","SENIORS":"N","PRE_PURCHA":"Y","OTHER":" "},"geometry":{"type":"Point","coordinates":[-75.2270910290948,39.97395193209625]}},{"type":"Feature","properties":{"OBJECTID":19,"NAME":"United Communities Southeast Philadelphia","ADDRESS":"2029 S 08TH ST","HOUSE":2029,"EXTENSION":" ","STREET":"08TH","ST_TYPE":"ST","ST_SUFFIX":" ","CITY":"PHILADELPHIA","STATE":"PA","ZIP":19148,"PREVENTION":"Y","SENIORS":"N","PRE_PURCHA":"Y","OTHER":" "},"geometry":{"type":"Point","coordinates":[-75.1594907304296,39.92326565624842]}},{"type":"Feature","properties":{"OBJECTID":20,"NAME":"Urban League of Philadelphia","ADDRESS":"121 S BROAD ST","HOUSE":121,"EXTENSION":" ","STREET":"BROAD","ST_TYPE":"ST","ST_SUFFIX":" ","CITY":"PHILADELPHIA","STATE":"PA","ZIP":19107,"PREVENTION":"Y","SENIORS":"N","PRE_PURCHA":"Y","OTHER":" "},"geometry":{"type":"Point","coordinates":[-75.16370024219455,39.95022785914272]}},{"type":"Feature","properties":{"OBJECTID":21,"NAME":"West Oak Lane CDC","ADDRESS":"2502 W CHELTENHAM AVE","HOUSE":2502,"EXTENSION":" ","STREET":"CHELTENHAM","ST_TYPE":"AVE","ST_SUFFIX":" ","CITY":"PHILADELPHIA","STATE":"PA","ZIP":19150,"PREVENTION":"Y","SENIORS":"N","PRE_PURCHA":"Y","OTHER":" "},"geometry":{"type":"Point","coordinates":[-75.15933382403891,40.07434291724984]}},{"type":"Feature","properties":{"OBJECTID":22,"NAME":"Affordable Housing Center of Philadelphia","ADDRESS":"846 N BROAD ST","HOUSE":846,"EXTENSION":" ","STREET":"BROAD","ST_TYPE":"ST","ST_SUFFIX":" ","CITY":"PHILADELPHIA","STATE":"PA","ZIP":19103,"PREVENTION":"Y","SENIORS":"N","PRE_PURCHA":"Y","OTHER":" "},"geometry":{"type":"Point","coordinates":[-75.16036607811388,39.9695211759474]}},{"type":"Feature","properties":{"OBJECTID":23,"NAME":"Action AIDS","ADDRESS":"1216 ARCH ST","HOUSE":1216,"EXTENSION":" ","STREET":"ARCH","ST_TYPE":"ST","ST_SUFFIX":" ","CITY":"PHILADELPHIA","STATE":"PA","ZIP":19107,"PREVENTION":"N","SENIORS":"N","PRE_PURCHA":"N","OTHER":"HIV/AIDS-related housing counseling only"},"geometry":{"type":"Point","coordinates":[-75.16042584998114,39.9537392259493]}},{"type":"Feature","properties":{"OBJECTID":24,"NAME":"Center in the Park","ADDRESS":"5818 GERMANTOWN AVE","HOUSE":5818,"EXTENSION":" ","STREET":"GERMANTOWN","ST_TYPE":"AVE","ST_SUFFIX":" ","CITY":"PHILADELPHIA","STATE":"PA","ZIP":19144,"PREVENTION":"Y","SENIORS":"Y","PRE_PURCHA":"Y","OTHER":" "},"geometry":{"type":"Point","coordinates":[-75.17668194569043,40.03573166850529]}},{"type":"Feature","properties":{"OBJECTID":25,"NAME":"Liberty Resources","ADDRESS":"714 MARKET ST","HOUSE":714,"EXTENSION":" ","STREET":"MARKET","ST_TYPE":"ST","ST_SUFFIX":" ","CITY":"PHILADELPHIA","STATE":"PA","ZIP":19106,"PREVENTION":"Y","SENIORS":"N","PRE_PURCHA":"Y","OTHER":" "},"geometry":{"type":"Point","coordinates":[-75.1527889723169,39.950520703043004]}},{"type":"Feature","properties":{"OBJECTID":26,"NAME":"Intercommunity Action","ADDRESS":"403 RECTOR ST","HOUSE":403,"EXTENSION":" ","STREET":"RECTOR","ST_TYPE":"ST","ST_SUFFIX":" ","CITY":"PHILADELPHIA","STATE":"PA","ZIP":19128,"PREVENTION":"Y","SENIORS":"Y","PRE_PURCHA":"Y","OTHER":" "},"geometry":{"type":"Point","coordinates":[-75.21398515986927,40.027546000042086]}},{"type":"Feature","properties":{"OBJECTID":27,"NAME":"Philadelphia Senior Center","ADDRESS":"509 S BROAD ST","HOUSE":509,"EXTENSION":" ","STREET":"BROAD","ST_TYPE":"ST","ST_SUFFIX":" ","CITY":"PHILADELPHIA","STATE":"PA","ZIP":19147,"PREVENTION":"Y","SENIORS":"Y","PRE_PURCHA":"Y","OTHER":" "},"geometry":{"type":"Point","coordinates":[-75.164945407929,39.94419422231677]}},{"type":"Feature","properties":{"OBJECTID":28,"NAME":"Tenant Union Rights Network","ADDRESS":"21 S 12TH ST","HOUSE":21,"EXTENSION":" ","STREET":"12TH","ST_TYPE":"ST","ST_SUFFIX":" ","CITY":"PHILADELPHIA","STATE":"PA","ZIP":19107,"PREVENTION":"N","SENIORS":"N","PRE_PURCHA":"N","OTHER":"Tenant-related counseling only"},"geometry":{"type":"Point","coordinates":[-75.15926245231142,39.95104399541197]}}]}